[
    {
        "code": 1102,
        "name": "欧風カレー ボンデイ 神田小川町店",
        "course": "A",
        "url": "https://kanda-curry.com/?p=6",
        "tn_url": "https://kanda-curry.com/wp/wp-content/uploads/2018/08/s2887.jpg",
        "address": "〒101-0052<br>千代田区神田小川町3‐9 AS ONE ビル2階",
        "business_hours": "11：00～22：00　（L.O.21：30）",
        "regular_holiday": "年末年始"
    },
    {
        "code": 1701,
        "name": "Cafe&amp;Bar BASE CAMP",
        "course": "A",
        "url": "https://kanda-curry.com/?p=6807",
        "tn_url": "https://kanda-curry.com/wp/wp-content/uploads/2018/08/s4787.jpg",
        "address": "〒101-0061<br>東京都千代田区三崎町2-22-8　梨本ビル1F",
        "business_hours": "火～金　11：30～23：30（LO23：00）<br>土・祝　15：00～23：30（LO23：00）",
        "regular_holiday": "日・月、年末年始"
    },
    {
        "code": 1804,
        "name": "MAJI CURRY 神田神保町本店",
        "course": "A",
        "url": "https://kanda-curry.com/?p=8247",
        "tn_url": "https://kanda-curry.com/wp/wp-content/uploads/2019/07/mazicurry-s.jpg",
        "address": "千代田区神田小川町3-10-7",
        "business_hours": "当面の間、営業時間を、<br>月曜から土曜　11：00～20：00（LO）<br>とさせていただきます。<br>どうぞよろしくお願いいたします。<br><br><br>通常の営業時間は以下の通りですが、当面の間上記営業時間となります。何卒ご了承ください。\n平日・土　11:00～22：00（LO)、\n日・祝　11:00～21:00（LO)<br>※土曜の営業時間は、平日と同じです。",
        "regular_holiday": "年末年始、当面の間日曜日もお休みします。（祝日は営業しています）"
    },
    {
        "code": 1322,
        "name": "アジアンダイニングバー SAPANA（サパナ） 水道橋西口店",
        "course": "A",
        "url": "https://kanda-curry.com/?p=651",
        "tn_url": "https://kanda-curry.com/wp/wp-content/uploads/2018/08/s4592.jpg",
        "address": "千代田区三崎町2-20-8 FUNDES水道橋1F",
        "business_hours": "カフェ 7:00～11:00<br>ランチ 11:00～16:00<br>ディナー 16:00～24:00<br>バー 24:00～7:00",
        "regular_holiday": "年末年始"
    },
    {
        "code": 1612,
        "name": "南インド料理 SRI BALAJI（シリバラジ）水道橋店",
        "course": "A",
        "url": "https://kanda-curry.com/?p=4376",
        "tn_url": "https://kanda-curry.com/wp/wp-content/uploads/2019/07/siribarazi.jpg",
        "address": "〒101-0065<br>東京都千代田区西神田2-1-11 1階・2階",
        "business_hours": "ランチ　11:00～15:00（LO）<br>ディナー17:00～23:00(LO 22:30)",
        "regular_holiday": "年末年始"
    },
    {
        "code": 1346,
        "name": "タイレストラン ムアンタイ",
        "course": "A",
        "url": "https://kanda-curry.com/?p=1348",
        "tn_url": "https://kanda-curry.com/wp/wp-content/uploads/2018/08/s1348.jpg",
        "address": "〒101-0051東京都千代田区神田神保町2-13西遊ビル1,2階",
        "business_hours": "ランチ月〜金　11:30～16:00（LO15:30）<br>ディナー月〜金　18:00～23:00（LO22:00）<br>ディナー土　17:30～22:00（LO21:00）",
        "regular_holiday": "日・祝、年末年始"
    },
    {
        "code": 2020,
        "name": "wata軒",
        "course": "A",
        "url": "https://kanda-curry.com/?p=11874",
        "tn_url": "https://kanda-curry.com/wp/wp-content/uploads/2020/08/ken-photo.jpg",
        "address": "千代田区九段北1-3-12 嘉仲ビル1F",
        "business_hours": "ランチ　12：00～14：30（LO）<br>ディナー　16：30～24：00（LO23：30）",
        "regular_holiday": "日、年末年始"
    },
    {
        "code": 1361,
        "name": "神田神保町　鴻（オオドリー）本店",
        "course": "A",
        "url": "https://kanda-curry.com/?p=2619",
        "tn_url": "https://kanda-curry.com/wp/wp-content/uploads/2018/08/s2619.jpg",
        "address": "東京都千代田区神田神保町1-25",
        "business_hours": "ランチ　11：00～14：30（L.O.14:00）<br>ディナー　18：00～23：00（L.O.22:00）<br>※当面の間ディナータイム休業しています。",
        "regular_holiday": "火・土・日・祝、年末年始"
    },
    {
        "code": 1718,
        "name": "ブックハウスカフェ",
        "course": "A",
        "url": "https://kanda-curry.com/?p=7138",
        "tn_url": "https://kanda-curry.com/wp/wp-content/uploads/2018/08/s7138.jpg",
        "address": "千代田区神田神保町2-5　北沢ビル1F",
        "business_hours": "書店・カフェ 11:00～18:00（LO）<br>バー（平日のみ） 20:00～23:30（LO）",
        "regular_holiday": "年末年始"
    },
    {
        "code": 1813,
        "name": "アパ社長カレー飯田橋駅南店",
        "course": "A",
        "url": "https://kanda-curry.com/?p=8291",
        "tn_url": "https://kanda-curry.com/wp/wp-content/uploads/2020/08/apa.jpg",
        "address": "千代田区飯田橋3-1-4 アパホテル〈飯田橋駅南〉1F",
        "business_hours": "平日　11:00～20:00（LO）",
        "regular_holiday": "土・日・祝、年末年始"
    },
    {
        "code": 1302,
        "name": "ARASH ～EXOTIC DINING～",
        "course": "A",
        "url": "https://kanda-curry.com/?p=1542",
        "tn_url": "https://kanda-curry.com/wp/wp-content/uploads/2020/08/arash.jpg",
        "address": "〒101-0061東京都千代田区神田三崎町3-1-1",
        "business_hours": "平日ランチ　11:00～15:30（LO15:00）<br>平日ディナー　17:00～23:00（LO22:30）<br>土・祝　11:00～17:00（LO16:30）",
        "regular_holiday": "日、年末年始"
    },
    {
        "code": 1803,
        "name": "お茶の水、大勝軒 BRANCHING",
        "course": "A",
        "url": "https://kanda-curry.com/?p=8282",
        "tn_url": "https://kanda-curry.com/wp/wp-content/uploads/2018/08/s4981.jpg",
        "address": "千代田区神田神保町 3-10-3 宝栄ビル 1F",
        "business_hours": "ランチ　11:00～15:00<br>ディナー15:00～22:00（LO）",
        "regular_holiday": "日曜日、年末年始"
    },
    {
        "code": 1319,
        "name": "キッチンカロリー",
        "course": "A",
        "url": "https://kanda-curry.com/?p=618",
        "tn_url": "https://kanda-curry.com/wp/wp-content/uploads/2018/08/s618.jpg",
        "address": "〒101-0052東京都千代田区神田小川町3-10　 江本ビル1F",
        "business_hours": "月～金 11:00～21:00（LO）<br>土　　 11:00～20:00（LO）<br>日・祝 11:00～19:00（LO）",
        "regular_holiday": "年末年始"
    },
    {
        "code": 2011,
        "name": "スパイシービストロ タップロボーン 神保町店",
        "course": "A",
        "url": "https://kanda-curry.com/?p=11092",
        "tn_url": "https://kanda-curry.com/wp/wp-content/uploads/2020/08/tapporobon.jpg",
        "address": "千代田区神田神保町2-6-3 早川青砥ビル1F",
        "business_hours": "ランチ　11:30～15:30（LO15：00）<br>ディナー　17:30～23:00（LO22：30）",
        "regular_holiday": "日曜日、年末年始"
    },
    {
        "code": 2016,
        "name": "東京地産地消ダイニング 気生根",
        "course": "A",
        "url": "https://kanda-curry.com/?p=11342",
        "tn_url": "https://kanda-curry.com/wp/wp-content/uploads/2020/08/kifune-thamb.jpg",
        "address": "千代田区神田小川町3-11 木村ビル1F",
        "business_hours": "ランチ：11:30～14:00（LO）<br>ディナー：17:30～22:00（LO）←通常営業時間<br><br>※9月1日から9月15日の間、ディナータイムの営業時間は<br>☆START 17:30<br>☆(LAST ORDER 20:00)<br>☆CLOSE 22:00<br>とさせて頂いております。<br>ご不便をお掛けいたしますが、何卒よろしくお願い致します。",
        "regular_holiday": "土・日・祝、年末年始"
    },
    {
        "code": 1707,
        "name": "丼達",
        "course": "A",
        "url": "https://kanda-curry.com/?p=6763",
        "tn_url": "https://kanda-curry.com/wp/wp-content/uploads/2018/08/s6763.jpg",
        "address": "〒101‐0061<br>東京都千代田区三崎町2‐11‐13　MMビル2　102",
        "business_hours": "当面の間、営業時間を短縮させていただきます。<br>平日　11:30～20:00<br>土曜　11:30～15:00<br><br>ガイドブック記載の通常の営業時間は以下の通りですが、当面の間、上記の営業時間となります。何卒ご了承ください。<br>平日　11：30～22：00<br>土曜日　11：30～17：00<br>",
        "regular_holiday": "日曜・祝日、年末年始"
    },
    {
        "code": 1103,
        "name": "ヒナタ屋 神保町本店",
        "course": "A",
        "url": "https://kanda-curry.com/?p=814",
        "tn_url": "https://kanda-curry.com/wp/wp-content/uploads/2018/08/s814.jpg",
        "address": "〒101-0052東京都千代田区神田小川町3-10　振天堂ビル４F",
        "business_hours": "月～土 11:30～15:00（L.O）",
        "regular_holiday": "日・祝、年末年始"
    },
    {
        "code": 1513,
        "name": "美味これくしょん神田倶楽部",
        "course": "A",
        "url": "https://kanda-curry.com/?p=3426",
        "tn_url": "https://kanda-curry.com/wp/wp-content/uploads/2018/08/s3426.jpg",
        "address": "千代田区神田錦町2-7-22 ワールドビル1階",
        "business_hours": "ランチ　11:30〜14:30（LO 14:00）<br>ディナー17:00〜22:30（LO 21:30）",
        "regular_holiday": "土・日・祝、年末年始"
    },
    {
        "code": 2021,
        "name": "べっぴん舍・神保町",
        "course": "A",
        "url": "https://kanda-curry.com/?p=11781",
        "tn_url": "https://kanda-curry.com/wp/wp-content/uploads/2020/08/beppin-zinbo.jpg",
        "address": "千代田区神田神保町1-30-10 早乙女ビル１階",
        "business_hours": "火・金　12:00～15:30（LO15:00）<br>水・木・土　11:30～15:30（LO15:00）",
        "regular_holiday": "月・水・日・祝、年末年始<br>（毎週水曜日もお休みになりました）"
    },
    {
        "code": 2005,
        "name": "レストラン エフ",
        "course": "A",
        "url": "https://kanda-curry.com/?p=11426",
        "tn_url": "https://kanda-curry.com/wp/wp-content/uploads/2020/08/efu.jpg",
        "address": "千代田区六番町15番地 主婦会館プラザエフ2F",
        "business_hours": "9月はランチのみの営業ですので何卒ご了承ください。<br>ランチ　11：30～14：30(LO14:00)<br><br>※ガイドブックは以下のように記載しておりますが、9月はランチのみの営業で、ランチ開始時間は11：30～に変更いたしました。何卒ご了承ください。<br>ランチ　11：00～14：30(LO14:00)<br>カフェ　15：00～17：00（貸し切りの場合は休業。HPで確認ください）",
        "regular_holiday": "土・日・祝、年末年始"
    },
    {
        "code": 1402,
        "name": "欧風カレー ボンディ 神保町本店",
        "course": "B",
        "url": "https://kanda-curry.com/?p=2887",
        "tn_url": "https://kanda-curry.com/wp/wp-content/uploads/2018/08/s2887.jpg",
        "address": "〒101-0051<br>千代田区 神田神保町2－3",
        "business_hours": "11:00～22:30 (LO 22:00)",
        "regular_holiday": "無休（年末年始を除く）"
    },
    {
        "code": 1318,
        "name": "喫茶 プペ",
        "course": "B",
        "url": "https://kanda-curry.com/?p=1700",
        "tn_url": "https://kanda-curry.com/wp/wp-content/uploads/2018/08/s1700.jpg",
        "address": "〒101-0054東京都千代田区神田錦町3-13-11",
        "business_hours": "モーニング 7:00～9:00（LO）<br>ランチ 11:30～14:00（LO）<br>ディナー 14:00～16:00（LO）<br>土曜日（ランチのみ） 11:00～13:00（LO）",
        "regular_holiday": "日曜日・祝日・年末年始"
    },
    {
        "code": 1810,
        "name": "Cozy",
        "course": "B",
        "url": "https://kanda-curry.com/?p=8231",
        "tn_url": "https://kanda-curry.com/wp/wp-content/uploads/2019/07/cozy-s.jpg",
        "address": "千代田区内神田2-12-3",
        "business_hours": "※営業時間が変更になりました。<br>現在、11：00～15：00になっています。<br><br>（ガイドブックには、平日11:00～20:00　と記載していますが変更になりましたので何卒ご了承ください）",
        "regular_holiday": "土・日・祝、年末年始"
    },
    {
        "code": 1301,
        "name": "一茶一会",
        "course": "B",
        "url": "https://kanda-curry.com/?p=411",
        "tn_url": "https://kanda-curry.com/wp/wp-content/uploads/2020/08/issa-thamb.jpg",
        "address": "千代田区神田小川町3-24-15",
        "business_hours": "新型コロナウィルス感染症の拡大を受けまして、しばらくの間、<br>11:30～15:00とさせていただきます。<br><br>（平常時：11:30～17:00（LO））",
        "regular_holiday": "日・祝、年末年始<br>当面の間、土曜日もお休みします。"
    },
    {
        "code": 1420,
        "name": "インド・パキスタン料理 スルターン 飯田橋店",
        "course": "B",
        "url": "https://kanda-curry.com/?p=3058",
        "tn_url": "https://kanda-curry.com/wp/wp-content/uploads/2018/08/s3058.jpg",
        "address": "千代田区飯田橋2-9-7 東西館ビル１Ｆ",
        "business_hours": "ランチ　　11:00～17:00(LO)<br>ディナー　17:00～23:00(LO 22:30)",
        "regular_holiday": "年末年始"
    },
    {
        "code": 1345,
        "name": "インドレストラン マンダラ",
        "course": "B",
        "url": "https://kanda-curry.com/?p=1666",
        "tn_url": "https://kanda-curry.com/wp/wp-content/uploads/2018/08/s1666.jpg",
        "address": "〒101-0051東京都千代田区神田神保町2-17 集英社共同ビル Ｂ1Ｆ",
        "business_hours": "ランチ（月～日・祝）　11：00～15：00（LO14：45）<br>ディナー（平日）\t17：00～23：00 （LO22：30）<br>ディナー（土・日・祝）　17：00～22：00（LO21：30）",
        "regular_holiday": "年末年始"
    },
    {
        "code": 1610,
        "name": "スパイス ボックス （Spice Box）",
        "course": "B",
        "url": "https://kanda-curry.com/?p=4682",
        "tn_url": "https://kanda-curry.com/wp/wp-content/uploads/2018/08/s4682.jpg",
        "address": "〒101-0047<br>東京都千代田区内神田1-15-12第二斉木ビル1F",
        "business_hours": "ランチ：11:00〜14:00（LO 13:45）<br>ディナー：18:00〜22:00（LO 21:00）<br>土ディナー：18:00〜21:00（LO 20:30）",
        "regular_holiday": "日・祝、年末年始"
    },
    {
        "code": 2009,
        "name": "バンゲラズ キッチン 神保町",
        "course": "B",
        "url": "https://kanda-curry.com/?p=11095",
        "tn_url": "https://kanda-curry.com/wp/wp-content/uploads/2020/08/bangera.jpg",
        "address": "千代田区\t神田錦町3-22\tテラススクエア1F",
        "business_hours": "※ランチ営業時間が変更になりました。<br>ランチ　11:00～（LO16:40）→11:00～15:00（LO14:40）<br>ディナー　17:00～23:00（LO22:30）<br><br>※ディナータイムは、8/31まで22:00（LO21:30）までの短縮営業となります。<br>※営業時間は都の要請に合わせて変わることがございます。",
        "regular_holiday": "年末年始"
    },
    {
        "code": 1614,
        "name": "BANAcoco.OKINAWA-THAILAND 東京カオソーイ",
        "course": "B",
        "url": "https://kanda-curry.com/?p=4906",
        "tn_url": "https://kanda-curry.com/wp/wp-content/uploads/2018/08/s4906.jpg",
        "address": "〒102-0073<br>東京都千代田区九段北1-9-14 九段リハイム1F",
        "business_hours": "ランチ　11:30～14:30(LO 14:00)<br>ディナー　18:00～21:30(LO 21:00)",
        "regular_holiday": "土・日・祝・お盆・年末年始"
    },
    {
        "code": 1308,
        "name": "鴻（オオドリー）神田駿河台店",
        "course": "B",
        "url": "https://kanda-curry.com/?p=520",
        "tn_url": "https://kanda-curry.com/wp/wp-content/uploads/2018/08/s520.jpg",
        "address": "〒101-0052東京都千代田区神田小川町3-10-18",
        "business_hours": "ランチ　11：00～15：30（LO 15：00）<br>ディナー（平日）　18：30～21：30（LO 21：00）<br>ディナー（土・祝）　17：00～20：30（LO 20：00）",
        "regular_holiday": "日、年末年始"
    },
    {
        "code": 1619,
        "name": "AKL　〜カレーなる酒場〜",
        "course": "B",
        "url": "https://kanda-curry.com/?p=5151",
        "tn_url": "https://kanda-curry.com/wp/wp-content/uploads/2019/07/akl-s.jpg",
        "address": "〒101-0048<br>千代田区神田司町2-10-19 1F",
        "business_hours": "ランチ 11:30～13:30（LO）<br>ディナー（立ち飲み） 17:00～21:00<br>※お客様がいれば、21:00以降も営業（LO 23:00）<br><br>※変更する場合があるので、詳しくは、公式ホームページをご確認ください<br><a href=\"https://aklcurry.jp/\" target=\"_blank\">https://aklcurry.jp/</a>",
        "regular_holiday": "土・日・祝、年末年始"
    },
    {
        "code": 1922,
        "name": "学士会館 THE SEVEN'S HOUSE",
        "course": "B",
        "url": "https://kanda-curry.com/?p=9683",
        "tn_url": "https://kanda-curry.com/wp/wp-content/uploads/2020/08/gakusi-thamb.jpg",
        "address": "千代田区神田錦町3-28",
        "business_hours": "ランチ 11:30～14:00<br>ティー 14:00～17:00<br>ディナー 17:00～22:00（LO21:00）",
        "regular_holiday": "2020年 8/13～8/16、年末年始"
    },
    {
        "code": 1808,
        "name": "神田カレー屋ツバキ",
        "course": "B",
        "url": "https://kanda-curry.com/?p=8241",
        "tn_url": "https://kanda-curry.com/wp/wp-content/uploads/2020/08/tubaki.jpg",
        "address": "千代田区神田鍛冶町3-5-3",
        "business_hours": "平日ランチ　　11：00～14：30（LO）<br>土曜ランチ　　12：00～14：00（LO）",
        "regular_holiday": "日・祝、年末年始"
    },
    {
        "code": 1344,
        "name": "ジンギスカン 神保町 マカン",
        "course": "B",
        "url": "https://kanda-curry.com/?p=1330",
        "tn_url": "https://kanda-curry.com/wp/wp-content/uploads/2018/08/s1330.jpg",
        "address": "〒101-0051東京都千代田区神田神保町2-1　岩波神保町ビル別館2階",
        "business_hours": "ランチ（平日）11：30〜15：00(LO 14:40)<br>ランチ（土・祝）11:30〜14:00 (LO 13:30)<br>ディナー（平日）　17：30〜24：00（LO 23：30）<br>ディナー（土・祝）17:30〜21:30 (LO 21:00）",
        "regular_holiday": "日・年末年始"
    },
    {
        "code": 1338,
        "name": "東京オーブン ワインと南部鉄器キッチン",
        "course": "B",
        "url": "https://kanda-curry.com/?p=1164",
        "tn_url": "https://kanda-curry.com/wp/wp-content/uploads/2020/09/to-close.png",
        "address": "〒101-0047千代田区内神田2-6-9 翔和鎌倉橋ビル1F",
        "business_hours": "月～金ランチ 11:30～14:30（LO14:00）<br>月～金ディナー 17:30～23:00（LO22:00）<br>土曜 16:00～23:00（LO22:00）",
        "regular_holiday": "日・祝、年末年始"
    },
    {
        "code": 1408,
        "name": "とろ肉つけ麺　魚とん",
        "course": "B",
        "url": "https://kanda-curry.com/?p=2949",
        "tn_url": "https://kanda-curry.com/wp/wp-content/uploads/2020/08/uoton-thamb.jpg",
        "address": "〒101-0052<br>千代田区\t神田小川町1-7　神田小川町ハイツ1F",
        "business_hours": "月・水・金　11:00～15:00（LO14:30）<br>火・木　11:00～15:00（LO14:30）<br>火・木　17:00～21:00（LO20:00）<br>※スープがなくなり次第終了します",
        "regular_holiday": "土・日・祝、年末年始"
    },
    {
        "code": 1815,
        "name": "日乃屋カレー九段下",
        "course": "B",
        "url": "https://kanda-curry.com/?p=4882",
        "tn_url": "https://kanda-curry.com/wp/wp-content/uploads/2018/08/s4882.jpg",
        "address": "千代田区九段北1-3-5ロアジス九段ﾋﾞﾙ 1F",
        "business_hours": "月～金 11:00～21:00<br>土日祝 11:00～17:00",
        "regular_holiday": "土日祝は不定休、年末年始"
    },
    {
        "code": 1607,
        "name": "べっぴん舍・お茶の水",
        "course": "B",
        "url": "https://kanda-curry.com/?p=4930",
        "tn_url": "https://kanda-curry.com/wp/wp-content/uploads/2020/08/beppin.jpg",
        "address": "〒101-0052<br>東京都千代田区神田小川町3-10 駿台ビル2階",
        "business_hours": "ランチ　11：00～15：30（LO 15：00）<br>火・金 ディナー 18：00～20：00（LO）<br>※ディナー営業は、火曜日と金曜日のみです。コース料理は、別途ご相談承ります。前日までのご予約となります。",
        "regular_holiday": "月曜日、水曜日、年末年始<br>（水曜日もお休みになりました）"
    },
    {
        "code": 2013,
        "name": "MONMOM",
        "course": "B",
        "url": "https://kanda-curry.com/?p=11634",
        "tn_url": "https://kanda-curry.com/wp/wp-content/uploads/2020/08/monmon-thamb.jpg",
        "address": "千代田区神田神保町3-3-2 J'z Tower 1・2階",
        "business_hours": "ランチ 11:30～14:30（LO14:00）<br>ディナー 17:00～22:00（LO21:30）",
        "regular_holiday": "土・日・祝、年末年始"
    },
    {
        "code": 1717,
        "name": "焼肉ゑびす本廛",
        "course": "B",
        "url": "https://kanda-curry.com/?p=7160",
        "tn_url": "https://kanda-curry.com/wp/wp-content/uploads/2019/07/ebisu-s.jpg",
        "address": "千代田区神田司町2-6-6",
        "business_hours": "平日ランチ 11：30～14：00<br>平日ディナー 17：30～23：00（LO22：30）",
        "regular_holiday": "土・日・祝、年末年始"
    },
    {
        "code": 1403,
        "name": "欧風カレー ガヴィアル 神保町店",
        "course": "C",
        "url": "https://kanda-curry.com/?p=2896",
        "tn_url": "https://kanda-curry.com/wp/wp-content/uploads/2018/08/s2896.jpg",
        "address": "〒101-0051<br>千代田区神田神保町1-9　稲垣ビル2F",
        "business_hours": "11：00～22：00（LO 21：30）",
        "regular_holiday": "年末年始"
    },
    {
        "code": 2022,
        "name": "牛舎 神田小川町店",
        "course": "C",
        "url": "https://kanda-curry.com/?p=10858",
        "tn_url": "https://kanda-curry.com/wp/wp-content/uploads/2020/08/gyuusya-thamb.jpg",
        "address": "千代田区神田小川町3-26",
        "business_hours": "ランチ 11:00～15:00（LO14:30）<br>ディナー 17:00～22:00（LO21:30）",
        "regular_holiday": "日、年末年始"
    },
    {
        "code": 1704,
        "name": "アロマズオブインディア",
        "course": "C",
        "url": "https://kanda-curry.com/?p=6901",
        "tn_url": "https://kanda-curry.com/wp/wp-content/uploads/2018/08/s6901.jpg",
        "address": "〒101-0041<br>千代田区神田須田町1-21-4　神田NKビル",
        "business_hours": "ランチ　11：00〜15：00（LO14：30）<br>ディナー　17：00〜23：00（LO22：30）",
        "regular_holiday": "12/31ディナー、1/1"
    },
    {
        "code": 1104,
        "name": "インドカレー カーマ",
        "course": "C",
        "url": "https://kanda-curry.com/?p=547",
        "tn_url": "https://kanda-curry.com/wp/wp-content/uploads/2018/08/s547.jpg",
        "address": "〒101‐0064千代田区猿楽町1－2－3",
        "business_hours": "11:30～15:00（LO14:45）<br>営業時間が変更になりました。ガイドブックには17：00まで記載されていますが、変更になりましたので何卒ご了承ください。",
        "regular_holiday": "日曜日、年末年始"
    },
    {
        "code": 1816,
        "name": "SAINO",
        "course": "C",
        "url": "https://kanda-curry.com/?p=8237",
        "tn_url": "https://kanda-curry.com/wp/wp-content/uploads/2020/08/saino-thamb.jpg",
        "address": "千代田区神田猿楽町2-6-5",
        "business_hours": "ランチ（平日）　11：00～17：00（LO）<br>ランチ（土日祝）11：00～15：00（LO）<br>ディナー　　　　17：00～23：00（LO 22：00）",
        "regular_holiday": "年末年始"
    },
    {
        "code": 1329,
        "name": "J. Tipple Bar",
        "course": "C",
        "url": "https://kanda-curry.com/?p=694",
        "tn_url": "https://kanda-curry.com/wp/wp-content/uploads/2018/08/s694.jpg",
        "address": "〒101-0051千代田区神田神保町1－64　野間ビル中2階",
        "business_hours": "(月～金)17:00～翌2:00<br>（土）17:00～24:00",
        "regular_holiday": "日・祝、年末年始"
    },
    {
        "code": 2004,
        "name": "南インドの定食と軽食 三燈舎",
        "course": "C",
        "url": "https://kanda-curry.com/?p=11396",
        "tn_url": "https://kanda-curry.com/wp/wp-content/uploads/2020/08/santousya-thamb.jpg",
        "address": "千代田区神田小川町3-2 古室ビル2階",
        "business_hours": "ランチ：11:00～15:30（LO15:00）<br>ディナー：17:30～22:00（LO21:00）※6月現在、土日はLO20:00",
        "regular_holiday": "月曜日、年末年始"
    },
    {
        "code": 1806,
        "name": "ラホール 外神田店",
        "course": "C",
        "url": "https://kanda-curry.com/?p=1785",
        "tn_url": "https://kanda-curry.com/wp/wp-content/uploads/2018/08/s1785.jpg",
        "address": "〒101-0021千代田区外神田3-10-9木村ビル1階",
        "business_hours": "11：00～20：00（LO19：45）",
        "regular_holiday": "火曜日（祝日の場合は翌日）、年末年始"
    },
    {
        "code": 2018,
        "name": "バンコックコスモ食堂",
        "course": "C",
        "url": "https://kanda-curry.com/?p=11827",
        "tn_url": "https://kanda-curry.com/wp/wp-content/uploads/2020/08/cosmo-thamb.jpg",
        "address": "千代田区西神田2-1-13 櫻井ビル1F",
        "business_hours": "平日ランチ　11:00～17:00（LO）<br>平日ディナー　17:00～22:00（LO21:30）<br>土日祝ランチ　11:00～15:00（LO14:30）<br>土日祝ディナー　17:30～22:00（LO21:30）",
        "regular_holiday": "年末年始"
    },
    {
        "code": 1615,
        "name": "メナムのほとり 神保町テラススクエア店",
        "course": "C",
        "url": "https://kanda-curry.com/?p=4890",
        "tn_url": "https://kanda-curry.com/wp/wp-content/uploads/2018/08/4890-2.jpg",
        "address": "〒101-0054<br>東京都千代田区神田錦町3-22 テラススクエア2F",
        "business_hours": "平日<br>ランチ　11:30～15:00(LO 14:30)<br>デイナー　17:30～23:00(LO 22:00)<br>土曜日<br>ランチ　11:30～15:00(LO 14:30)<br>デイナー　17:30～22:00(LO21:00)",
        "regular_holiday": "日・祝、年末年始"
    },
    {
        "code": 1306,
        "name": "Eblack （エブラック）",
        "course": "C",
        "url": "https://kanda-curry.com/?p=486",
        "tn_url": "https://kanda-curry.com/wp/wp-content/uploads/2018/08/s486.jpg",
        "address": "〒1010052千代田区神田小川町3-11 ダイワビルB1階",
        "business_hours": "ランチ月〜金\t11：50～14：00<br>ディナー月〜金\t18：00～深夜<br>ディナー土　18:00〜24:00<br>※土曜日は不定休のためお電話でご確認ください",
        "regular_holiday": "日・祝、第三土曜日、年末年始"
    },
    {
        "code": 2014,
        "name": "麻布十番モンタボー 東京ワテラスモール店",
        "course": "C",
        "url": "https://kanda-curry.com/?p=11631",
        "tn_url": "https://kanda-curry.com/wp/wp-content/uploads/2020/08/montapo-thamb.jpg",
        "address": "千代田区神田淡路町2-105 ワテラスアネックス1階",
        "business_hours": "当面の間、時間を短縮して営業しております。<br>平日 8:00～20:00<br>土日 祝9:00～20:00<br><br><br>ガイドブックには以下の営業時間を掲載しておりますが、当面の間は上記の営業時間となりますので、ご了承ください。<br>月～金 7:30～21:00、土曜日 9:00～21:00、日・祝 9:00～20:00",
        "regular_holiday": "年末年始"
    },
    {
        "code": 2002,
        "name": "麺匠釜善",
        "course": "C",
        "url": "https://kanda-curry.com/?p=10931",
        "tn_url": "https://kanda-curry.com/wp/wp-content/uploads/2020/08/men-thamb.jpg",
        "address": "千代田区神田司町2-14-15",
        "business_hours": "平日 11：00～20：00(LO)<br>土曜日 11：00～15：00(LO)",
        "regular_holiday": "日・祝、年末年始"
    },
    {
        "code": 1807,
        "name": "kitchen 723",
        "course": "C",
        "url": "https://kanda-curry.com/?p=8278",
        "tn_url": "https://kanda-curry.com/wp/wp-content/uploads/2018/08/s8278.jpg",
        "address": "千代田区鍛冶町2-11-17c-1",
        "business_hours": "ランチ火～金 11:30～14:30（LO14:00）<br>ディナー月～土 17:00～23:30（LO21:30）",
        "regular_holiday": "日・祝、年末年始"
    },
    {
        "code": 2007,
        "name": "京風カレー おこしやす",
        "course": "C",
        "url": "https://kanda-curry.com/?p=11114",
        "tn_url": "https://kanda-curry.com/wp/wp-content/uploads/2020/08/okoshiyasu.jpg",
        "address": "千代田区神田須田町1-3-7",
        "business_hours": "月～土 ランチ　11：30～14：30（LO）<br>平日 ディナー　17:00～20:00（LO）",
        "regular_holiday": "土ディナー、日、年末年始"
    },
    {
        "code": 1505,
        "name": "上等カレー神田小川町店",
        "course": "C",
        "url": "https://kanda-curry.com/?p=3371",
        "tn_url": "https://kanda-curry.com/wp/wp-content/uploads/2018/08/s3371.jpg",
        "address": "〒101-0052<br>千代田区 神田小川町2-1-15",
        "business_hours": "月〜金 10：00～22：00（LO 21：30）<br>土・日・祝 11:00〜20:30（LO 20:00）",
        "regular_holiday": "お盆、年末年始"
    },
    {
        "code": 1407,
        "name": "T.dining（ティーダイニング）",
        "course": "C",
        "url": "https://kanda-curry.com/?p=2907",
        "tn_url": "https://kanda-curry.com/wp/wp-content/uploads/2019/07/t-dining-s.jpg",
        "address": "〒101-0052<br>千代田区\t神田小川町1－6－7 \t竹田ビル1F",
        "business_hours": "ランチ 11：30～14：00（LO）<br>ディナー 18：00～21：30（LO21:00）",
        "regular_holiday": "土・日・祝、年末年始"
    },
    {
        "code": 1910,
        "name": "馬刺し＆焼酎BAL うどの",
        "course": "C",
        "url": "https://kanda-curry.com/?p=9658",
        "tn_url": "https://kanda-curry.com/wp/wp-content/uploads/2019/07/curry-udono.jpg",
        "address": "千代田区神田神保町2-18 第２鈴木ビル１F",
        "business_hours": "ランチ：月～金 11:30～13:45（LO）<br>ディナー：月～日 17:00～24:00（LO）",
        "regular_holiday": "不定休"
    },
    {
        "code": 1340,
        "name": "日乃屋カレー 神田",
        "course": "C",
        "url": "https://kanda-curry.com/?p=828",
        "tn_url": "https://kanda-curry.com/wp/wp-content/uploads/2018/08/s828.jpg",
        "address": "〒101-0044東京都千代田区鍛冶町2-11-16",
        "business_hours": "月～金ランチ　 11:00～16:00（LO15:45）<br>月～金ディナー　17:00～19:30（LO19:15）<br>土曜日　 11:00～15:00（LO14:45）",
        "regular_holiday": "日・祝、年末年始"
    },
    {
        "code": 1401,
        "name": "洋食膳&nbsp;海カレー&nbsp;TAKEUCHI&nbsp;神保町本店",
        "course": "C",
        "url": "https://kanda-curry.com/?p=2798",
        "tn_url": "https://kanda-curry.com/wp/wp-content/uploads/2019/07/takeuchi-s.jpg",
        "address": "〒101-0051<br>千代田区 神保町1-20-3 鈴木ビル1F",
        "business_hours": "11:30〜<br>ハンバーグとカレーがなくなり次第、閉店",
        "regular_holiday": "土・日・祝、年末年始"
    },
    {
        "code": 1903,
        "name": "大人の沖縄料理店 ぐしけん",
        "course": "D",
        "url": "https://kanda-curry.com/?p=9644",
        "tn_url": "https://kanda-curry.com/wp/wp-content/uploads/2020/08/gushiken-.jpg",
        "address": "千代田区神田小川町3-2-10 三光ビル2階",
        "business_hours": "ランチ 11：30～13：30（LO）<br>ディナー 17：00～22：30（LO）",
        "regular_holiday": "土・日・祝、年始年始"
    },
    {
        "code": 1411,
        "name": "インド料理 ザ・タンドール",
        "course": "D",
        "url": "https://kanda-curry.com/?p=2911",
        "tn_url": "https://kanda-curry.com/wp/wp-content/uploads/2018/08/s2911.jpg",
        "address": "〒101-0047<br>千代田区\t内神田1－5－11\tセントラル大手町ビル1階",
        "business_hours": "ランチ（平日）  : 11:00～15:00（LO）<br>ディナー（月～金）: 17:00～23:00（LO）<br>※土日祝はランチのみの営業になります",
        "regular_holiday": "年末年始"
    },
    {
        "code": 1608,
        "name": "カレー専門店ベンガル",
        "course": "D",
        "url": "https://kanda-curry.com/?p=4916",
        "tn_url": "https://kanda-curry.com/wp/wp-content/uploads/2018/08/s4916.jpg",
        "address": "千代田区外神田３-6-1 丸山ビル１F",
        "business_hours": "11:30～21:00（LO20:30）<br>第1・第3月曜日　11:30～15:00（LO）",
        "regular_holiday": "第1・第3月曜日のディナータイム、年末年始"
    },
    {
        "code": 1812,
        "name": "神保町ブックセンター",
        "course": "D",
        "url": "https://kanda-curry.com/?p=8272",
        "tn_url": "https://kanda-curry.com/wp/wp-content/uploads/2019/07/zinbocyobook-s.jpg",
        "address": "千代田区神田神保町2-3-1",
        "business_hours": "平日　　　　9:00～20:00（LO19:00）<br>土・日・祝　10:00～19:00（LO18:00）<br>※カレーの提供は11時から",
        "regular_holiday": "不定休、年末年始"
    },
    {
        "code": 1705,
        "name": "ボルツ",
        "course": "D",
        "url": "https://kanda-curry.com/?p=2098",
        "tn_url": "https://kanda-curry.com/wp/wp-content/uploads/2018/08/s2098.jpg",
        "address": "〒101-0054<br>千代田区神田錦町3-17",
        "business_hours": "平日　11：30〜20：30（LO20：00）<br>土・日・祝　11：30〜14：30（LO14：00）",
        "regular_holiday": "土日祝は不定休、年末年始"
    },
    {
        "code": 1711,
        "name": "南インド料理　アーンドラ・ダバ",
        "course": "D",
        "url": "https://kanda-curry.com/?p=6882",
        "tn_url": "https://kanda-curry.com/wp/wp-content/uploads/2018/08/s6882.jpg",
        "address": "〒101-0047<br>東京都千代田区内神田3-7-8サトウハウスビル２F",
        "business_hours": "ランチ(月〜金)　11:15〜15:00 (LO 14:30)<br>ランチ(土日祝)　11:30〜15:00 (LO 14:30)<br>デイナー(月〜金)　17:00〜23:00 (LO 22:00)<br>デイナー(土日祝)　17:00〜22:00 (LO 21:00)<br><br>※8月下旬発行のガイドブックには、<br>ランチ営業の開始時間が、11:00～と記載されていますが、<br>上記の通常の時間帯に戻りました。<br>何卒よろしくお願いいたします。",
        "regular_holiday": "年末年始"
    },
    {
        "code": 1347,
        "name": "タイレストラン メナムのほとり 神保町本店",
        "course": "D",
        "url": "https://kanda-curry.com/?p=1684",
        "tn_url": "https://kanda-curry.com/wp/wp-content/uploads/2018/08/s1684.jpg",
        "address": "〒101-0051東京都千代田区神田神保町２−１　岩波神保町ビル別館１F",
        "business_hours": "ランチ：11:30～15:00(LO 14:30)<br>デイナー：17:30～26:00(LO 25:00)<br>上記以外：土日祝のディナーLO 21:00<br>※22：00以降のお会計には、10％の深夜料金がかかります。",
        "regular_holiday": "年末年始"
    },
    {
        "code": 1712,
        "name": "BAR CAFE 三月の水",
        "course": "D",
        "url": "https://kanda-curry.com/?p=6827",
        "tn_url": "https://kanda-curry.com/wp/wp-content/uploads/2019/07/sangatu-s.jpg",
        "address": "〒101-0052<br>東京都千代田区神田小川町3-14-2漢陽ビル3階",
        "business_hours": "ランチ 11:30～15:00（LO14:30）<br>バー 18:30～24:00（LO23:30）",
        "regular_holiday": "日・祝、年末年始、土曜は不定休"
    },
    {
        "code": 1915,
        "name": "神保町イタリアン Cuore d’oro",
        "course": "D",
        "url": "https://kanda-curry.com/?p=9668",
        "tn_url": "https://kanda-curry.com/wp/wp-content/uploads/2020/08/cuore.jpg",
        "address": "千代田区神田神保町1-14-16 2F",
        "business_hours": "平日ランチ　　11:30～14:00（LO）<br>平日ディナー　17:30～22:00（LO）<br>土ランチ　11:30～14:00（LO）<br>土・祝ディナー　17:30～21:00（LO）",
        "regular_holiday": "日曜日、年末年始"
    },
    {
        "code": 1512,
        "name": "秋葉原 カリガリ",
        "course": "D",
        "url": "https://kanda-curry.com/?p=3439",
        "tn_url": "https://kanda-curry.com/wp/wp-content/uploads/2018/08/s3439.jpg",
        "address": "〒101-0021<br>千代田区外神田3-6-9 沖村ビル1F",
        "business_hours": "平日　 11:30〜15:00 (LO 14:30)<br>17:00〜23:00 (LO 22:15)<br>土日祝 11:00〜23:00 (LO 22:15)",
        "regular_holiday": "年末年始"
    },
    {
        "code": 2012,
        "name": "カフェ＆ダイニング jimbocho",
        "course": "D",
        "url": "https://kanda-curry.com/?p=11204",
        "tn_url": "https://kanda-curry.com/wp/wp-content/uploads/2020/08/jimbocho.jpg",
        "address": "千代田区神田小川町3-11-2 インペリアルお茶の水2F",
        "business_hours": "ランチ　11:30～15:00（LO14:30）",
        "regular_holiday": "土・日・祝、年末年始"
    },
    {
        "code": 1105,
        "name": "カリーライス専門店 エチオピア",
        "course": "D",
        "url": "https://kanda-curry.com/?p=499",
        "tn_url": "https://kanda-curry.com/wp/wp-content/uploads/2018/08/s499.jpg",
        "address": "〒101-0052千代田区神田小川町3-10-6",
        "business_hours": "月～土 11:00～22:30（LO 22:00）<br>日・祝 11:00～21:00（LO 20:30）",
        "regular_holiday": "無休"
    },
    {
        "code": 1904,
        "name": "カレー食堂心 ヨドバシAkiba店",
        "course": "D",
        "url": "https://kanda-curry.com/?p=9646",
        "tn_url": "https://kanda-curry.com/wp/wp-content/uploads/2020/08/kokoro.jpg",
        "address": "千代田区神田花岡町1-1 ヨドバシAkiba8F",
        "business_hours": "11：00～23：00（LO22:00）",
        "regular_holiday": "なし"
    },
    {
        "code": 1312,
        "name": "カレー屋ばんび",
        "course": "D",
        "url": "https://kanda-curry.com/?p=911",
        "tn_url": "https://kanda-curry.com/wp/wp-content/uploads/2020/08/banbi-thamb.jpg",
        "address": "〒101-0064千代田区神田小川町3-10-17 木邑ビル 1F",
        "business_hours": "月～土　11：00～22：30（LO）<br>日・祝　11：00～14：30（LO）",
        "regular_holiday": "年末年始"
    },
    {
        "code": 2019,
        "name": "スパイスカレー ブラックデビル",
        "course": "D",
        "url": "https://kanda-curry.com/?p=11846",
        "tn_url": "https://kanda-curry.com/wp/wp-content/uploads/2020/08/bd-thamb.jpg",
        "address": "千代田区神田佐久間町2-11 AOIビル中2階",
        "business_hours": "11:30～14:30（LO）",
        "regular_holiday": "日・祝、年末年始<br>※8月は、月・日曜・祝日・14日・15日がお休み"
    },
    {
        "code": 1106,
        "name": "スマトラカレー 共栄堂",
        "course": "D",
        "url": "https://kanda-curry.com/?p=636",
        "tn_url": "https://kanda-curry.com/wp/wp-content/uploads/2018/08/s636.jpg",
        "address": "〒101-0051東京都千代田区神田神保町1－6サンビルＢ1",
        "business_hours": "11:00～20:00　（LO19：45）",
        "regular_holiday": "日曜（祝日は不定休）、年末年始"
    },
    {
        "code": 1914,
        "name": "だしごはん",
        "course": "D",
        "url": "https://kanda-curry.com/?p=9666",
        "tn_url": "https://kanda-curry.com/wp/wp-content/uploads/2019/07/dashigohan-s.jpg",
        "address": "千代田区岩本町3-3-11",
        "business_hours": "11：30～14：30（LO）",
        "regular_holiday": "土・日・祝、年末年始"
    },
    {
        "code": 2003,
        "name": "ダルバートShanti",
        "course": "D",
        "url": "https://kanda-curry.com/?p=10937",
        "tn_url": "https://kanda-curry.com/wp/wp-content/uploads/2020/08/shanti-thamb.jpg",
        "address": "千代田区神田鍛冶町3-3-21 晴花ビル5階",
        "business_hours": "ランチ　11:30～15:00（LO14:30）<br>ディナー　17:00～20:00（LO19:30）",
        "regular_holiday": "日曜・祝日、年末年始"
    },
    {
        "code": 1811,
        "name": "中国東北少数民族料理 羊福",
        "course": "D",
        "url": "https://kanda-curry.com/?p=8260",
        "tn_url": "https://kanda-curry.com/wp/wp-content/uploads/2018/08/s8260.jpg",
        "address": "千代田区神田錦町3ｰ22テラススクエア2F",
        "business_hours": "平日・土ランチ 11:30～15:00（LO）<br>平日ディナー 17:00～22:00（LO21:30）<br>※土曜ランチはお休みの 場合あり",
        "regular_holiday": "日・祝、年末年始"
    },
    {
        "code": 1916,
        "name": "日乃屋カレー 御茶ノ水",
        "course": "D",
        "url": "https://kanda-curry.com/?p=9670",
        "tn_url": "https://kanda-curry.com/wp/wp-content/uploads/2019/07/hinoya-ocya-s.jpg",
        "address": "千代田区神田駿河台2-10-3",
        "business_hours": "平日　11:00～21:00（LO）<br>土日祝　11:00～15:00（LO）<br>※ルウがなくなり次第　早めに営業終了する場合がございます。",
        "regular_holiday": "年末年始、不定休（予告なく休業させて頂く場合がございます。）"
    },
    {
        "code": 1815,
        "name": "欧風カレー ガヴィアル コレド室町2店",
        "course": "E",
        "url": "https://kanda-curry.com/?p=8296",
        "tn_url": "https://kanda-curry.com/wp/wp-content/uploads/2018/08/s8296.jpg",
        "address": "中央区日本橋室町2-3-1",
        "business_hours": "11:00～21:00（LO 20:30）",
        "regular_holiday": "年末年始"
    },
    {
        "code": 1417,
        "name": "トプカ 神田本店",
        "course": "E",
        "url": "https://kanda-curry.com/?p=2196",
        "tn_url": "https://kanda-curry.com/wp/wp-content/uploads/2018/08/s2196.jpg",
        "address": "〒101-0041<br>千代田区 神田須田町1-11",
        "business_hours": "平日ランチ　11：00～15：30（LO）<br>平日ディナー　17：30～22：30（LO21：30）（カレーレストラン＋居酒屋）<br>土・日・祝　11：30～18：00（LO）",
        "regular_holiday": "年末年始"
    },
    {
        "code": 1604,
        "name": "ハンバーグレストラン 牛舎本店",
        "course": "E",
        "url": "https://kanda-curry.com/?p=5201",
        "tn_url": "https://kanda-curry.com/wp/wp-content/uploads/2020/08/gyusya-thamb.jpg",
        "address": "〒101‐0021<br>東京都千代田区外神田6−5−9",
        "business_hours": "ランチ　11:30〜15:30（LO15:00）<br>ディナー　18:00〜21:30（LO21:00）<br>ハンバーグなくなり次第終了",
        "regular_holiday": "火曜の夜、年末年始"
    },
    {
        "code": 1413,
        "name": "100時間カレー 神田店",
        "course": "E",
        "url": "https://kanda-curry.com/?p=2807",
        "tn_url": "https://kanda-curry.com/wp/wp-content/uploads/2018/08/s2807.jpg",
        "address": "〒101-0047<br>千代田区\t内神田2-9-11 鉄鋼新聞第二ビル1F",
        "business_hours": "営業時間が変更になりました（ガイドブック記載とは異なっております）。<br>平日<br>11:00～16:00（LO15:30）<br>17:00～21:00（LO21:00）<br>土日祝<br>11:00～16:00（LO15:30）<br>17:00～20:00（LO20:00）",
        "regular_holiday": "不定休、年末年始<br>※研修等でお休みの場合あり"
    },
    {
        "code": 1314,
        "name": "ガンディーマハル",
        "course": "E",
        "url": "https://kanda-curry.com/?p=595",
        "tn_url": "https://kanda-curry.com/wp/wp-content/uploads/2018/08/s595.jpg",
        "address": "〒101-0052千代田区神田小川町1-10保坂ビル2F",
        "business_hours": "ランチ　11:00～15:00（LO 14:50）<br>ディナー 17:00～22:00（LO 21:50）",
        "regular_holiday": "年末年始"
    },
    {
        "code": 2015,
        "name": "ホットハウス 秋葉原本店",
        "course": "E",
        "url": "https://kanda-curry.com/?p=11661",
        "tn_url": "https://kanda-curry.com/wp/wp-content/uploads/2020/08/hothouse-stop.jpg",
        "address": "千代田区外神田4-4-2 HULIC &amp; New AKIHABARA 5F",
        "business_hours": "平日ランチ　11:00～15:00 (LO 14:30)<br>平日ディナー　17:00～22:00 (LO 21:30)<br>土・日・祝　11:00～22:00 (LO 21:30)",
        "regular_holiday": "年中無休"
    },
    {
        "code": 1905,
        "name": "南インド食堂 Beans on Beans",
        "course": "E",
        "url": "https://kanda-curry.com/?p=9648",
        "tn_url": "https://kanda-curry.com/wp/wp-content/uploads/2019/07/beans-s.jpg",
        "address": "中央区日本橋本石町4-4-15 平和本社ビル2F",
        "business_hours": "ランチ 11:30～15:00（LO14:30）<br>ディナー 17:30～22:30（LO22:00）⇒当面の間、17:30～22：00（LO21:00）です。<br>",
        "regular_holiday": "日曜日、年末年始、第2土曜日<br>第2土曜日もお休みとなります。何卒ご了承ください。"
    },
    {
        "code": 1336,
        "name": "チャントーヤ ココナッツ カリー",
        "course": "E",
        "url": "https://kanda-curry.com/?p=786",
        "tn_url": "https://kanda-curry.com/wp/wp-content/uploads/2018/08/s786.jpg",
        "address": "〒101-0052東京都千代田区神田小川町3-28-7　昇龍館ビル1Ｆ",
        "business_hours": "平日\tランチ　11：00～15：00<br>平日ディナー　15：00～22：00（ＬＯ21：30）<br>土日祝\t11：00～21：00（ＬＯ20：30）",
        "regular_holiday": "年末年始"
    },
    {
        "code": 1919,
        "name": "Curry＆Cafe SAMA 神田店",
        "course": "E",
        "url": "https://kanda-curry.com/?p=9676",
        "tn_url": "https://kanda-curry.com/wp/wp-content/uploads/2019/07/sama-s.jpg",
        "address": "千代田区外神田6-15-4",
        "business_hours": "ランチ　 11:30～15:30（LO15:00）<br>ディナー 17:00～22:00（LO21:30）",
        "regular_holiday": "第2水曜日、年末年始"
    },
    {
        "code": 1906,
        "name": "蕎麦ダイニング 煉 神田店",
        "course": "E",
        "url": "https://kanda-curry.com/?p=9650",
        "tn_url": "https://kanda-curry.com/wp/wp-content/uploads/2019/07/ren-s.jpg",
        "address": "千代田区神田須田町2-13-10 アーバイル神田EAST 1F",
        "business_hours": "ランチ 11:30～14:30（LO14:00）<br>ディナー 17:30～23:15（LO22:30）",
        "regular_holiday": "土・日・祝、年末年始"
    },
    {
        "code": 1907,
        "name": "APRON The Diner",
        "course": "E",
        "url": "https://kanda-curry.com/?p=9652",
        "tn_url": "https://kanda-curry.com/wp/wp-content/uploads/2020/08/apron.jpg",
        "address": "千代田区鍛冶町2-10-3 アパホテル神田駅前 1F",
        "business_hours": "月～金ランチ 11:00～14:30(LO14:00)<br>月～金ディナー 17:30～22:30(LO22:00)<br>※ディナーは事前予約（コース料理）のみ",
        "regular_holiday": "土・日・祝　※ガイドブックには年中無休とありますが、土日祝がお休みとなります。"
    },
    {
        "code": 1621,
        "name": "OCEAN breeze",
        "course": "E",
        "url": "https://kanda-curry.com/?p=5227",
        "tn_url": "https://kanda-curry.com/wp/wp-content/uploads/2018/08/s5227.jpg",
        "address": "千代田区内神田3-21-5　村井ビルB1F",
        "business_hours": "火・水　ランチ　11:30～14:00（LO）<br>ディナー　17:30〜23:00（LO22:30）",
        "regular_holiday": "日・祝、年末年始"
    },
    {
        "code": 1920,
        "name": "カレーの比嘉",
        "course": "E",
        "url": "https://kanda-curry.com/?p=9678",
        "tn_url": "https://kanda-curry.com/wp/wp-content/uploads/2019/07/curry-higa-s.jpg",
        "address": "千代田区鍛冶町1-7-1 椿ビルB1F",
        "business_hours": "平日ランチ 11:30～14:00（LO）",
        "regular_holiday": "土・日・祝、年始年始"
    },
    {
        "code": 2006,
        "name": "くずしわしょく香季庵 日本橋店",
        "course": "E",
        "url": "https://kanda-curry.com/?p=11437",
        "tn_url": "https://kanda-curry.com/wp/wp-content/uploads/2020/08/kuzuwasyoku.jpg",
        "address": "中央区日本橋室町4-4-10 坂田ビルB1",
        "business_hours": "ランチ　11:30～15:00（LO14:30）<br>ディナー　17:00～23:00（LO22:30）",
        "regular_holiday": "日曜日、9/22・11/23・12/30・12/31<br>（9/20・11/22・12/13・12/20・12/27は営業）"
    },
    {
        "code": 1720,
        "name": "Shapla（シャプラ）神田店",
        "course": "E",
        "url": "https://kanda-curry.com/?p=6819",
        "tn_url": "https://kanda-curry.com/wp/wp-content/uploads/2018/08/s6819.jpg",
        "address": "〒101-0044<br>東京都千代田区鍛冶町2－7－6リッツビル２F",
        "business_hours": "ランチ　11:30～15:00 (LO 14:30)<br>ディナー　17:00～23:00 (LO 22:30)",
        "regular_holiday": "日曜・祝日、年末年始"
    },
    {
        "code": 1331,
        "name": "ジャンカレー",
        "course": "E",
        "url": "https://kanda-curry.com/?p=1117",
        "tn_url": "https://kanda-curry.com/wp/wp-content/uploads/2019/07/jan-s.jpg",
        "address": "〒101-0021東京都千代田区外神田3-6-7　大西ビル1F",
        "business_hours": "11:00～21:00（LO）",
        "regular_holiday": "年末年始"
    },
    {
        "code": 2001,
        "name": "スパイスパレット",
        "course": "E",
        "url": "https://kanda-curry.com/?p=10773",
        "tn_url": "https://kanda-curry.com/wp/wp-content/uploads/2020/08/palette-thamb.jpg",
        "address": "東京都台東区台東1-9-4 松浦ビル2F",
        "business_hours": "ランチ(月～土）：11:30～15:00(LO14:30)<br>ディナー（月～金）：17:30～22:30(LO22:00)<br><br>※通常は、22：00ラストオーダーで22：30閉店ですが、新型コロナウイルス感染症拡大のため、21：00以降お客様がいらっしゃらない場合は、早じまいをさせていただきます。",
        "regular_holiday": "土ディナー・日・祝、年末年始"
    },
    {
        "code": 1626,
        "name": "日乃屋カレー 神田西口",
        "course": "E",
        "url": "https://kanda-curry.com/?p=5013",
        "tn_url": "https://kanda-curry.com/wp/wp-content/uploads/2018/08/s5013.jpg",
        "address": "〒101-0047<br>東京都千代田区内神田2-11-8 神田新洋ビル1F",
        "business_hours": "月〜金ランチ　11：00〜15：00（LO）<br>月〜金ディナー　17：00〜20：00（LO）<br>土・祝　11：00〜15：00（LO）",
        "regular_holiday": "日曜、年末年始"
    },
    {
        "code": 2017,
        "name": "41カレー",
        "course": "E",
        "url": "https://kanda-curry.com/?p=11837",
        "tn_url": "https://kanda-curry.com/wp/wp-content/uploads/2020/08/yonzyuuichi.jpg",
        "address": "千代田区内神田3-22-5",
        "business_hours": "ランチ 11:30～15:00（LO）<br>ディナー 18:00～23:00（LO22:30）",
        "regular_holiday": "土・日・祝、年末年始"
    },
    {
        "code": 2008,
        "name": "RESTAURANT 1899 OCHANOMIZU",
        "course": "E",
        "url": "https://kanda-curry.com/?p=11357",
        "tn_url": "https://kanda-curry.com/wp/wp-content/uploads/2020/08/r1o.jpg",
        "address": "千代田区神田駿河台3‐4",
        "business_hours": "ランチ：　11:00～14:00（LO13:30）<br>カフェ：　14:00～16:30（LO16:00）<br>ディナー：17:30～22:00（LO21:00）",
        "regular_holiday": "年末年始"
    }
]